[
  {
    "id": "492001004613",
    "displayName": "Basket Landes",
    "shortDisplayName": "Basket Landes",
    "division": "d1",
    "latitude": 43.8975686,
    "longitude": -0.4645006,
    "logo": "https://www.proballers.com/api/getTeamLogo?id=2653&width=200",
    "venue": "Espace F. Mitterrand",
    "location": "Mont-de-Marsan",
    "color": null,
    "capacity": null,
    "website": "www.basket-landes.com"
  },
  {
    "id": "9817",
    "displayName": "Bourges Basket",
    "shortDisplayName": "Bourges",
    "division": "d1",
    "latitude": 47.082785,
    "longitude": 2.385387,
    "logo": "https://www.proballers.com/api/getTeamLogo?id=2654&width=200",
    "venue": "Palais des Sports Prado",
    "location": "Bourges",
    "color": null,
    "capacity": null,
    "website": "cjmbb.fr"
  },
  {
    "id": "10045",
    "displayName": "Flammes Carolo Basket",
    "shortDisplayName": "Charleville",
    "division": "d1",
    "latitude": 49.757464,
    "longitude": 4.706943,
    "logo": "https://www.proballers.com/api/getTeamLogo?id=2656&width=200",
    "venue": "Guinguette Arena",
    "location": "Charleville-Mezieres",
    "color": null,
    "capacity": null,
    "website": "fan.lesflammes.com/index.html"
  },
  {
    "id": "9603",
    "displayName": "Landerneau Bretagne Basket",
    "shortDisplayName": "Landerneau",
    "division": "d1",
    "latitude": 48.444727,
    "longitude": -4.263135,
    "logo": "https://www.proballers.com/api/getTeamLogo?id=13330&width=200",
    "venue": "Salle Multisports de Lavallot",
    "location": "Landerneau",
    "color": null,
    "capacity": null,
    "website": "www.landerneau-bretagne-basket.fr"
  },
  {
    "id": "10596",
    "displayName": "BLMA (Lattes-Montpellier)",
    "shortDisplayName": "Lattes-Montpellier",
    "division": "d1",
    "latitude": 43.56979,
    "longitude": 3.899995,
    "logo": "https://www.proballers.com/api/getTeamLogo?id=2658&width=200",
    "venue": "Palais des Sports",
    "location": "Lattes",
    "color": null,
    "capacity": null,
    "website": "www.blma.fr"
  },
  {
    "id": "10276",
    "displayName": "ESB Villeneuve-d'Ascq",
    "shortDisplayName": "Villeneuve-d'Ascq",
    "division": "d1",
    "latitude": 50.627176,
    "longitude": 3.135095,
    "logo": "https://www.proballers.com/api/getTeamLogo?id=2664&width=200",
    "venue": "Voltaire",
    "location": "Villeneuve-d'Ascq",
    "color": null,
    "capacity": null,
    "website": null
  },
  {
    "id": "9411",
    "displayName": "Charnay Basket Bourgogne Sud",
    "shortDisplayName": "Charnay",
    "division": "d1",
    "latitude": 46.3073,
    "longitude": 4.8098,
    "logo": "https://www.proballers.com/api/getTeamLogo?id=13378&width=200",
    "venue": "Centre Sportif Maurice Chevalier",
    "location": "Charnay-les-Macon",
    "color": null,
    "capacity": null,
    "website": "\"charnaybasket.fr\""
  },
  {
    "id": "9849",
    "displayName": "C'Chartres Basket Féminin",
    "shortDisplayName": "Chartres",
    "division": "d1",
    "latitude": 48.450595,
    "longitude": 1.504583,
    "logo": "https://www.proballers.com/api/getTeamLogo?id=13659&width=200",
    "venue": "Halle Jean Cochet",
    "location": "Chartres",
    "color": null,
    "capacity": null,
    "website": "www.cchartresbasketfeminin.com"
  },
  {
    "id": "9196",
    "displayName": "Roche Vendée Basket",
    "shortDisplayName": "La Roche-sur-Yon",
    "division": "d1",
    "latitude": 46.671235,
    "longitude": -1.404553,
    "logo": "https://www.proballers.com/api/getTeamLogo?id=449&width=200",
    "venue": "Salle des Oudairies",
    "location": "La Roche-sur-Yon",
    "color": null,
    "capacity": null,
    "website": "rvbc.fr"
  },
  {
    "id": "11158",
    "displayName": "Lyon ASVEL Féminin",
    "shortDisplayName": "Lyon",
    "division": "d1",
    "latitude": 45.724135,
    "longitude": 4.828259,
    "logo": "https://www.proballers.com/api/getTeamLogo?id=2659&width=200",
    "venue": "Gymnase Victor Grignard",
    "location": "Lyon",
    "color": null,
    "capacity": null,
    "website": "fclyonasvelfeminin.com"
  },
  {
    "id": "405001018666",
    "displayName": "Toulouse Métropole Basket",
    "shortDisplayName": "Toulouse",
    "division": "d1",
    "latitude": 43.612938,
    "longitude": 1.435045,
    "logo": "https://www.proballers.com/api/getTeamLogo?id=446&width=200",
    "venue": "Gymnase Compans Caffarelli",
    "location": "Toulouse",
    "color": null,
    "capacity": null,
    "website": "www.tmb-basket.com"
  },
  {
    "id": "17001062691",
    "displayName": "Union Féminine Angers Basket 49",
    "shortDisplayName": "Angers",
    "division": "d1",
    "latitude": 47.459887,
    "longitude": -0.531725,
    "logo": "https://www.proballers.com/api/getTeamLogo?id=2941&width=200",
    "venue": "Salle de l'Europe",
    "location": "Angers",
    "color": null,
    "capacity": null,
    "website": "ufab49.com"
  },
  {
    "id": "7924",
    "displayName": "BC La Tronche-Meylan",
    "shortDisplayName": "Meylan",
    "division": "d2",
    "latitude": 45.2108,
    "longitude": 5.799018,
    "logo": "https://www.proballers.com/api/getTeamLogo?id=13658&width=200",
    "venue": "Gymnase Charlaix Maupertuis",
    "location": "Meylan",
    "color": null,
    "capacity": null,
    "website": "bctm-feminin.fr"
  },
  {
    "id": "200000002674033",
    "displayName": "Pays Voironnais Basket",
    "shortDisplayName": "Voiron",
    "division": "d2",
    "latitude": 45.3604837,
    "longitude": 5.5938114,
    "logo": "https://www.proballers.com/api/getTeamLogo?id=14708&width=200",
    "venue": "Gymnase Henri Chautard",
    "location": "Voiron",
    "color": null,
    "capacity": null,
    "website": "www.pvbc.fr"
  },
  {
    "id": "10938",
    "displayName": "Montbrison Féminines Basket",
    "shortDisplayName": "Montbrison",
    "division": "d2",
    "latitude": 45.608845,
    "longitude": 4.059212,
    "logo": "https://www.proballers.com/api/getTeamLogo?id=13657&width=200",
    "venue": "Complexe Andre Dubruc",
    "location": "Montbrison",
    "color": null,
    "capacity": null,
    "website": "www.montbrison-forezbasketfeminin.com"
  },
  {
    "id": "10710",
    "displayName": "Feytiat Basket 87",
    "shortDisplayName": "Feytiat",
    "division": "d2",
    "latitude": 45.805124,
    "longitude": 1.326321,
    "logo": "https://www.proballers.com/api/getTeamLogo?id=14901&width=200",
    "venue": "Salle Roger Couderc",
    "location": "Feytiat",
    "color": null,
    "capacity": null,
    "website": "www.feytiatbasket87.com"
  },
  {
    "id": "200000002673011",
    "displayName": "Monaco Basket",
    "shortDisplayName": "Monaco",
    "division": "d2",
    "latitude": 43.7384,
    "longitude": 7.4246,
    "logo": "https://www.proballers.com/api/getTeamLogo?id=14717&width=200",
    "venue": "Gymnase l'Annonciade",
    "location": "Monaco",
    "color": null,
    "capacity": null,
    "website": "www.mba-monacobasket.com"
  },
  {
    "id": "10354",
    "displayName": "Saint-Amand Hainaut Basket",
    "shortDisplayName": "Saint-Amand",
    "division": "d2",
    "latitude": 50.450924,
    "longitude": 3.434101,
    "logo": "https://www.proballers.com/api/getTeamLogo?id=2657&width=200",
    "venue": "Maurice Hugot",
    "location": "Lecelles",
    "color": null,
    "capacity": null,
    "website": "club.quomodo.com/usaph/accueil/bienvenue.html"
  },
  {
    "id": "11415",
    "displayName": "USO Mondeville",
    "shortDisplayName": "Mondeville",
    "division": "d2",
    "latitude": 49.178691,
    "longitude": -0.316898,
    "logo": "https://www.proballers.com/api/getTeamLogo?id=2660&width=200",
    "venue": "Halle des Sports P Beregovoy",
    "location": "Mondeville",
    "color": null,
    "capacity": null,
    "website": "mondevillebasket.com"
  },
  {
    "id": "10108",
    "displayName": "Champagne Basket Féminin",
    "shortDisplayName": "Reims",
    "division": "d2",
    "latitude": 49.24355,
    "longitude": 4.025529,
    "logo": "https://www.proballers.com/api/getTeamLogo?id=13655&width=200",
    "venue": "Gymnase Roland Bourgoin",
    "location": "Reims",
    "color": null,
    "capacity": null,
    "website": "champagne-basket-feminin.fr"
  },
  {
    "id": "11347",
    "displayName": "GCO Bihorel",
    "shortDisplayName": "Bihorel",
    "division": "d2",
    "latitude": 49.447852,
    "longitude": 1.063275,
    "logo": "https://www.proballers.com/api/getTeamLogo?id=15455&width=200",
    "venue": "Salle Pierre de Coubertin",
    "location": "Critot",
    "color": null,
    "capacity": null,
    "website": null
  },
  {
    "id": "10210",
    "displayName": "AS Aulnoye",
    "shortDisplayName": "Aulnoye",
    "division": "d2",
    "latitude": 50.196791,
    "longitude": 3.836415,
    "logo": "https://www.proballers.com/api/getTeamLogo?id=13660&width=200",
    "venue": "Mandela",
    "location": "Bavay",
    "color": null,
    "capacity": null,
    "website": "www.aulnoye-basket.fr"
  },
  {
    "id": "71001005255",
    "displayName": "Cavigal Nice Basket 06",
    "shortDisplayName": "Nice",
    "division": "d2",
    "latitude": 43.714815,
    "longitude": 7.291419,
    "logo": "https://www.proballers.com/api/getTeamLogo?id=2662&width=200",
    "venue": "Complexe Sportif Serge Leyrit",
    "location": "Nice",
    "color": null,
    "capacity": null,
    "website": "www.cavigalnicebasket06.com"
  },
  {
    "id": "8053",
    "displayName": "SI Graffenstaden",
    "shortDisplayName": "Graffenstaden",
    "division": "d2",
    "latitude": 48.520513,
    "longitude": 7.726281,
    "logo": "https://www.proballers.com/api/getTeamLogo?id=13653&width=200",
    "venue": "Salle de la S.i.g.",
    "location": "Illkirch-Graffenstaden",
    "color": null,
    "capacity": null,
    "website": "www.sigassociation.alsace"
  },
  {
    "id": "11282",
    "displayName": "Aplemont Le Havre Basket",
    "shortDisplayName": "Le Havre",
    "division": "d2",
    "latitude": 49.50835,
    "longitude": 0.162952,
    "logo": "https://www.proballers.com/api/getTeamLogo?id=15342&width=200",
    "venue": "Salle Pierre de Coubertin",
    "location": "Le Havre",
    "color": null,
    "capacity": null,
    "website": "www.aplemontlehavrebasket.com"
  },
  {
    "id": "11521",
    "displayName": "Centre Fédéral (INSEP)",
    "shortDisplayName": "Paris",
    "division": "d2",
    "latitude": 48.831905,
    "longitude": 2.449235,
    "logo": "https://www.proballers.com/api/getTeamLogo?id=13656&width=200",
    "venue": "Insep C.s Nelson Paillou (1)",
    "location": "Paris 12e  Arrondissement",
    "color": null,
    "capacity": null,
    "website": null
  }
]
